slowtests/gmat/cygfm01/EclipseLocator1.txt

Spacecraft: DefaultSC

Start Time (UTC)            Stop Time (UTC)               Duration (s)    Occ Body        Type        Event Number  Total Duration (s)
16 Dec 2025 06:39:55.990    16 Dec 2025 07:13:25.137      2009.1473083    Earth           Umbra       1             2017.6411207
16 Dec 2025 07:13:25.137    16 Dec 2025 07:13:33.631      8.4938123706    Earth           Penumbra    1             2017.6411207
16 Dec 2025 08:10:15.293    16 Dec 2025 08:10:23.771      8.4782298887    Earth           Penumbra    2             2167.6920129
16 Dec 2025 08:10:23.771    16 Dec 2025 08:46:14.488      2150.7172386    Earth           Umbra       2             2167.6920129
16 Dec 2025 08:46:14.488    16 Dec 2025 08:46:22.985      8.4965444519    Earth           Penumbra    2             2167.6920129
16 Dec 2025 09:43:04.824    16 Dec 2025 09:43:13.305      8.4809242515    Earth           Penumbra    3             2167.5194455
16 Dec 2025 09:43:13.305    16 Dec 2025 10:19:03.844      2150.5394738    Earth           Umbra       3             2167.5194455
16 Dec 2025 10:19:03.844    16 Dec 2025 10:19:12.343      8.4990473930    Earth           Penumbra    3             2167.5194455
16 Dec 2025 11:15:54.382    16 Dec 2025 11:16:02.866      8.4836406168    Earth           Penumbra    4             2167.3431979
16 Dec 2025 11:16:02.866    16 Dec 2025 11:51:53.224      2150.3581236    Earth           Umbra       4             2167.3431979
16 Dec 2025 11:51:53.224    16 Dec 2025 11:52:01.725      8.5014337208    Earth           Penumbra    4             2167.3431979
16 Dec 2025 12:48:43.950    16 Dec 2025 12:48:52.437      8.4865150857    Earth           Penumbra    5             2167.1804342
16 Dec 2025 12:48:52.437    16 Dec 2025 13:24:42.627      2150.1899104    Earth           Umbra       5             2167.1804342
16 Dec 2025 13:24:42.627    16 Dec 2025 13:24:51.131      8.5040086415    Earth           Penumbra    5             2167.1804342
16 Dec 2025 14:21:33.523    16 Dec 2025 14:21:42.012      8.4895473439    Earth           Penumbra    6             2167.0313858
16 Dec 2025 14:21:42.012    16 Dec 2025 14:57:32.047      2150.0348919    Earth           Umbra       6             2167.0313858
16 Dec 2025 14:57:32.047    16 Dec 2025 14:57:40.554      8.5069466033    Earth           Penumbra    6             2167.0313858
16 Dec 2025 15:54:23.111    16 Dec 2025 15:54:31.603      8.4927084739    Earth           Penumbra    7             2166.8848611
16 Dec 2025 15:54:31.603    16 Dec 2025 16:30:21.485      2149.8820188    Earth           Umbra       7             2166.8848611
16 Dec 2025 16:30:21.485    16 Dec 2025 16:30:29.995      8.5101338220    Earth           Penumbra    7             2166.8848611
16 Dec 2025 17:27:12.711    16 Dec 2025 17:27:21.207      8.4959981614    Earth           Penumbra    8             2166.7361343
16 Dec 2025 17:27:21.207    16 Dec 2025 18:03:10.934      2149.7267988    Earth           Umbra       8             2166.7361343
16 Dec 2025 18:03:10.934    16 Dec 2025 18:03:19.447      8.5133373854    Earth           Penumbra    8             2166.7361343

Number of individual events : 23
Number of total events      : 8
Maximum duration (s)        :   2167.6920129
Maximum duration at the 2nd eclipse.


