slowtests/gmat/noaa20_viirs/ContactLocator7.txt

Target: DefaultSC

Observer: GroundStation7
Start Time (UTC)            Stop Time (UTC)               Duration (s)         
31 Oct 2025 16:15:08.543    31 Oct 2025 16:26:10.490      661.94670220    
31 Oct 2025 17:56:30.837    31 Oct 2025 18:07:32.806      661.96858714    
31 Oct 2025 19:37:53.164    31 Oct 2025 19:48:55.203      662.03901367    
31 Oct 2025 21:19:15.529    31 Oct 2025 21:30:17.608      662.07945457    
31 Oct 2025 23:00:37.900    31 Oct 2025 23:11:39.932      662.03166955    
01 Nov 2025 00:42:00.229    01 Nov 2025 00:53:02.177      661.94852589    
01 Nov 2025 02:23:22.494    01 Nov 2025 02:34:24.409      661.91489194    


Number of events : 7


