slowtests/gmat/noaa20_viirs/ContactLocator6.txt

Target: DefaultSC

Observer: GroundStation6
Start Time (UTC)            Stop Time (UTC)               Duration (s)         
31 Oct 2025 15:24:28.907    31 Oct 2025 15:35:30.329      661.42187604    
31 Oct 2025 17:05:51.165    31 Oct 2025 17:16:52.644      661.47896812    
31 Oct 2025 18:47:13.466    31 Oct 2025 18:58:14.983      661.51672880    
31 Oct 2025 20:28:35.838    31 Oct 2025 20:39:37.335      661.49652202    
31 Oct 2025 22:09:58.228    31 Oct 2025 22:20:59.675      661.44749166    
31 Oct 2025 23:51:20.557    01 Nov 2025 00:02:21.986      661.42911392    
01 Nov 2025 01:32:42.830    01 Nov 2025 01:43:44.264      661.43452716    


Number of events : 7


