slowtests/gmat/noaa20_viirs/EclipseLocator1.txt

Spacecraft: DefaultSC

Start Time (UTC)            Stop Time (UTC)               Duration (s)    Occ Body        Type        Event Number  Total Duration (s)
31 Oct 2025 15:35:33.424    31 Oct 2025 15:35:43.981      10.557016265    Earth           Penumbra    1             1979.0385675
31 Oct 2025 15:35:43.981    31 Oct 2025 16:08:21.958      1957.9770716    Earth           Umbra       1             1979.0385675
31 Oct 2025 16:08:21.958    31 Oct 2025 16:08:32.463      10.504479648    Earth           Penumbra    1             1979.0385675
31 Oct 2025 17:16:55.319    31 Oct 2025 17:17:05.876      10.557776922    Earth           Penumbra    2             1979.0006874
31 Oct 2025 17:17:05.876    31 Oct 2025 17:49:43.814      1957.9379747    Earth           Umbra       2             1979.0006874
31 Oct 2025 17:49:43.814    31 Oct 2025 17:49:54.319      10.504935728    Earth           Penumbra    2             1979.0006874
31 Oct 2025 18:58:17.232    31 Oct 2025 18:58:27.791      10.558532551    Earth           Penumbra    3             1978.9619557
31 Oct 2025 18:58:27.791    31 Oct 2025 19:31:05.688      1957.8977318    Earth           Umbra       3             1978.9619557
31 Oct 2025 19:31:05.688    31 Oct 2025 19:31:16.194      10.505691357    Earth           Penumbra    3             1978.9619557
31 Oct 2025 20:39:39.166    31 Oct 2025 20:39:49.725      10.559303896    Earth           Penumbra    4             1978.9369053
31 Oct 2025 20:39:49.725    31 Oct 2025 21:12:27.596      1957.8709636    Earth           Umbra       4             1978.9369053
31 Oct 2025 21:12:27.596    31 Oct 2025 21:12:38.103      10.506637779    Earth           Penumbra    4             1978.9369053
31 Oct 2025 22:21:01.108    31 Oct 2025 22:21:11.668      10.560139362    Earth           Penumbra    5             1978.9234957
31 Oct 2025 22:21:11.668    31 Oct 2025 22:53:49.524      1957.8559909    Earth           Umbra       5             1978.9234957
31 Oct 2025 22:53:49.524    31 Oct 2025 22:54:00.031      10.507365433    Earth           Penumbra    5             1978.9234957
01 Nov 2025 00:02:23.033    01 Nov 2025 00:02:33.594      10.560895305    Earth           Penumbra    6             1978.9028281
01 Nov 2025 00:02:33.594    01 Nov 2025 00:35:11.428      1957.8342672    Earth           Umbra       6             1978.9028281
01 Nov 2025 00:35:11.428    01 Nov 2025 00:35:21.935      10.507665609    Earth           Penumbra    6             1978.9028281
01 Nov 2025 01:43:44.918    01 Nov 2025 01:43:55.479      10.561301722    Earth           Penumbra    7             1978.8644548
01 Nov 2025 01:43:55.479    01 Nov 2025 02:16:33.275      1957.7954274    Earth           Umbra       7             1978.8644548
01 Nov 2025 02:16:33.275    01 Nov 2025 02:16:43.782      10.507725645    Earth           Penumbra    7             1978.8644548

Number of individual events : 21
Number of total events      : 7
Maximum duration (s)        :   1979.0385675
Maximum duration at the 1st eclipse.


